{
  "和平校區(靠教育大樓)": {
    "title": "國立高雄師範大學和平校區 圓環處靠教育大樓",
    "address": "80201高雄市苓雅區和平一路116號",
    "latitude": 22.625623562987823,
    "longitude": 120.32044888781094
  },
  "和平校區(靠圖書館)": {
    "title": "國立高雄師範大學和平校區 圓環處靠圖書館",
    "address": "80201高雄市苓雅區和平一路116號",
    "latitude": 22.625928509789738,
    "longitude": 120.32031983576366
  },
  "科技大樓": {
    "title": "國立高雄師範大學燕巢校區科技大樓",
    "address": "824高雄市燕巢區深中路62號",
    "latitude": 22.79084508119623,
    "longitude": 120.40657205580484
  },
  "致理大樓": {
    "title": "國立高雄師範大學燕巢校區致理大樓",
    "address": "824高雄市燕巢區深中路62號",
    "latitude": 22.78895025490534,
    "longitude": 120.40564642920886
  },
  "高斯大樓": {
    "title": "國立高雄師範大學燕巢校區高斯大樓",
    "address": "824高雄市燕巢區深中路62號",
    "latitude": 22.78825044221581,
    "longitude": 120.40611849798958
  },
  "圖資大樓": {
    "title": "國立高雄師範大學燕巢校區圖書資訊大樓",
    "address": "824高雄市燕巢區深中路62號",
    "latitude": 22.78721147426056,
    "longitude": 120.4079900556381
  }
}